id,name,lat,lng,image_url
1001,別海町,43.533265,145.236970,https://local.pokemon.jp/img/p/manhole/63d1b0ab4923f1c3cd03a928dd57d7b5_m.png
1002,湧別町,44.184660,143.594848,https://local.pokemon.jp/img/p/manhole/80d67fcbafef57060bff53c8de34985b_m.png
1003,津別町,43.69494344,144.029683,https://local.pokemon.jp/img/p/manhole/fa60bb5908c2b1825c3022acdc8aac53_m.png
1004,幌延町,45.040817,141.861200,https://local.pokemon.jp/img/p/manhole/c109d6f01a11e1abe9df06af4196d73c_m.png
1005,厚沢部町,41.916775,140.216556,https://local.pokemon.jp/img/p/manhole/00de3645760fd45cc9adfdb0967ac056_m.png
1006,由仁町,43.01186,141.78697,https://local.pokemon.jp/img/p/manhole/7dd1c2ca558b28c070cf52b3cf98f68d_m.png
1007,砂川市,43.493037,141.907367,https://local.pokemon.jp/img/p/manhole/d6b485b2485506fb3022e809a4c2876c_m.png
1008,札幌市,42.96615624,141.1669585,https://local.pokemon.jp/img/p/manhole/531b4a4ba848285085f50bb59b5a7a61_m.png
1009,美瑛町,43.59198,142.46372,https://local.pokemon.jp/img/p/manhole/de1fad5b97b1302c551d9589cad60c01_m.png
1010,美幌町,43.836455,144.105878,https://local.pokemon.jp/img/p/manhole/8ec01130d0c20e3a3957f36e64315883_m.png
1011,猿払村,45.329186,142.177267,https://local.pokemon.jp/img/p/manhole/e37f84100e487f76745f084394ae7d07_m.png
1012,木古内町,41.678024,140.43558,https://local.pokemon.jp/img/p/manhole/9c50492829220e1aa07a60b268ddfa1e_m.png
1013,歌志内市,43.503206,142.005914,https://local.pokemon.jp/img/p/manhole/9e92a35e490e653f3cdbc4836a94263e_m.png
1014,北見市,43.75359,143.500587,https://local.pokemon.jp/img/p/manhole/5d4acfcb12a887332d63082b2bfcae8a_m.png
1015,室蘭市,42.313837,140.973986,https://local.pokemon.jp/img/p/manhole/8926749b6373a6631574db18ea39adf7_m.png
1016,当別町,43.17716187047716,141.4485234,https://local.pokemon.jp/img/p/manhole/b156dff51cd08f5fedd446271f2af5cb_m.png
1017,えりも町,42.01782,143.14619,https://local.pokemon.jp/img/p/manhole/d6112e741a398a77436b6a4eca00b2cf_m.png
1018,斜里町,44.06884,144.99062,https://local.pokemon.jp/img/p/manhole/1c18c9f749dced78800c3893890d0fbc_m.png
1019,東川町,43.698404,142.507039,https://local.pokemon.jp/img/p/manhole/97cab8cd9571ac26cba4a7a16bb12770_m.png
1020,赤井川村,43.05125,140.844262,https://local.pokemon.jp/img/p/manhole/f141860f843e06b962fcbd5c4d699d6e_m.png
1021,網走市,44.021949,144.274423,https://local.pokemon.jp/img/p/manhole/7f513d0f647dc5adfe2e0576aedaf871_m.png
1022,帯広市,42.918205,143.202563,https://local.pokemon.jp/img/p/manhole/978d53fbb05f1fc405e8f52a26325b90_m.png
1023,釧路市,43.144027,144.14549,https://local.pokemon.jp/img/p/manhole/a3d69726d4c689718117f62c9aef41e7_m.png
1024,旭川市,43.7595958,142.3485094,https://local.pokemon.jp/img/p/manhole/98f049601f822ae15722cb1f18b781b0_m.png
1025,中標津町,43.554566,144.969609,https://local.pokemon.jp/img/p/manhole/690d084c832f1c94f9c765c47fb5d3b4_m.png
1026,陸別町,43.467701,143.742721,https://local.pokemon.jp/img/p/manhole/3085ebc53a5477aed032335bdc1c5d7e_m.png
1027,本別町,43.125781,143.613441,https://local.pokemon.jp/img/p/manhole/c196a6a082f5b38bd76fb1a6acb8b999_m.png
1028,登別市,42.452786,141.180999,https://local.pokemon.jp/img/p/manhole/171f0782befe20c0ce34ea9cf2a069ef_m.png
1029,根室市,43.335936,145.598194,https://local.pokemon.jp/img/p/manhole/ef06fc22ce5dae9e3683d8fec4a9f68e_m.png
1030,小樽市,43.195544,140.998285,https://local.pokemon.jp/img/p/manhole/5a324c4217960388cb12d0c412bb2ae5_m.png
1031,函館市,41.755926,140.715684,https://local.pokemon.jp/img/p/manhole/acac72c0b33b4df7f2a735443fc8eacf_m.png
1032,剣淵町,44.1000303,142.3593096,https://local.pokemon.jp/img/p/manhole/130ae2f0d814df1b0a14c36032523a85_m.png
1033,上富良野町,43.462246,142.479068,https://local.pokemon.jp/img/p/manhole/333446f14d9d7487fd1051ed1a5564d8_m.png
1034,三笠市,43.2613165,141.9626673,https://local.pokemon.jp/img/p/manhole/37eb2bacbb680049ab0ce47cd56cb080_m.png
1035,苫小牧市,42.635755,141.61009,https://local.pokemon.jp/img/p/manhole/d0fd3269d1c6446d47a5d73e39c3273c_m.png
1036,足寄町,43.244229,143.546753,https://local.pokemon.jp/img/p/manhole/18709c0795ab510b4759d0a7d51bd645_m.png
1037,新得町,43.082684,142.832927,https://local.pokemon.jp/img/p/manhole/0ae31f4e9e07a44469e899c4f8a7c0d1_m.png
1038,大空町,43.915555,144.17137,https://local.pokemon.jp/img/p/manhole/fdf28d6a85b570757b1a6a6045c05ace_m.png
1039,遠軽町,44.021878,143.497131,https://local.pokemon.jp/img/p/manhole/ea59f21d2187fb600591f5b4843bf63d_m.png
1040,紋別市,44.334641,143.372211,https://local.pokemon.jp/img/p/manhole/708b89a16446446c4f4b67b89afb40b2_m.png
1041,豊富町,45.103245,141.778643,https://local.pokemon.jp/img/p/manhole/d4e4eb2b9d3e88657aec298b6778c90d_m.png
1042,稚内市,45.417236,141.677095,https://local.pokemon.jp/img/p/manhole/92f6a149a9614bf12a606d2c691f4def_m.png
1043,天塩町,44.88452,141.74797,https://local.pokemon.jp/img/p/manhole/ad2274e40919a0301047f6e809a040fd_m.png
1044,比布町,43.875033,142.471699,https://local.pokemon.jp/img/p/manhole/f5e2dff8844d9a78c1baca3405a0737b_m.png
1045,士別市,44.175974,142.392417,https://local.pokemon.jp/img/p/manhole/c5ca9b484bde47acd0cd18e4c115eb74_m.png
1046,上ノ国町,41.808398,140.095409,https://local.pokemon.jp/img/p/manhole/835ef4993bfa0a192e0f0fe4a51c13a3_m.png
1047,森町,42.108855,140.572941,https://local.pokemon.jp/img/p/manhole/7304ef666e025271c5f04399faf2bc07_m.png
1048,洞爺湖町,42.566111,140.819072,https://local.pokemon.jp/img/p/manhole/c9b1ca1743f22f22ec0cc61d901b5dad_m.png
1049,恵庭市,42.897132,141.585789,https://local.pokemon.jp/img/p/manhole/0ade724150fd22b8e25d72508fdfbc91_m.png
1050,石狩市,43.585848,141.423898,https://local.pokemon.jp/img/p/manhole/9a5bcd8fc9acb25f4bd0f7ad5ed029ee_m.png
2001,階上町,40.458437,141.608335,https://local.pokemon.jp/img/p/manhole/1723f48f98735fe88693db2547152835_m.png
2002,八戸市,40.537937,141.558034,https://local.pokemon.jp/img/p/manhole/980e5418dbdef7582b162d577ad77cf7_m.png
3001,葛巻町,39.984472,141.339917,https://local.pokemon.jp/img/p/manhole/e0af9a218a104af4f32e4c65f047155a_m.png
3002,盛岡市,39.846667,141.173111,https://local.pokemon.jp/img/p/manhole/d0ba56dc0960526c6c25a5e6bfaf3d09_m.png
3003,北上市,39.27362,141.1282,https://local.pokemon.jp/img/p/manhole/74be692413e89b4fec7143be21b89187_m.png
3004,北上市,39.281115,141.122747,https://local.pokemon.jp/img/p/manhole/078ccb34c03eff812d8749fed35e679a_m.png
3005,久慈市,40.225538,141.781703,https://local.pokemon.jp/img/p/manhole/2542a462ffbb774db2a3a9c72fc44239_m.png
3006,一戸町,40.20885,141.30468,https://local.pokemon.jp/img/p/manhole/f13194f5bef52f5ccefbec9e2a63045d_m.png
3007,九戸村,40.24854,141.416759,https://local.pokemon.jp/img/p/manhole/4cabd14c034857349d2f7dbfe2c962c8_m.png
3008,軽米町,40.322649,141.381779,https://local.pokemon.jp/img/p/manhole/c1d89eb9977a98ddc9928fcc01679954_m.png
3009,平泉町,38.986635,141.108167,https://local.pokemon.jp/img/p/manhole/8836400faac2d8e8a399cbb3d4486759_m.png
3010,西和賀町,39.31446,140.77649,https://local.pokemon.jp/img/p/manhole/ad2314607356eb76b53f042d0d0c789e_m.png
3011,紫波町,39.554641,141.158293,https://local.pokemon.jp/img/p/manhole/a6b1f66c93b0ccde014798e169a62ab7_m.png
3012,岩手町,39.968579,141.213736,https://local.pokemon.jp/img/p/manhole/ae475fe4a3bc02e9f2c71b5b530bdec9_m.png
3013,滝沢市,39.734,141.07829,https://local.pokemon.jp/img/p/manhole/2490baa3ed8a260be964d24128fd0154_m.png
3014,八幡平市,39.87958,141.099388,https://local.pokemon.jp/img/p/manhole/ceed9f9a751f47fe1f935b99da1e094e_m.png
3015,二戸市,40.320335,141.318849,https://local.pokemon.jp/img/p/manhole/ea457a9ac12cd61461471430fa04872e_m.png
3016,一関市,38.98958,141.25527,https://local.pokemon.jp/img/p/manhole/453d04268259621cd2081a81428b81d8_m.png
3017,遠野市,39.330638,141.528872,https://local.pokemon.jp/img/p/manhole/863f98fb33b3066069009fc1ca95df3a_m.png
3018,花巻市,39.392034,141.11169,https://local.pokemon.jp/img/p/manhole/17c410916387ddddbd7f807b04947683_m.png
3019,住田町,39.142287,141.574456,https://local.pokemon.jp/img/p/manhole/83d5c100e0ee6372bd16490dbc67fa5d_m.png
3020,陸前高田市,39.01675,141.628694,https://local.pokemon.jp/img/p/manhole/b48f36c2ea4948e57d737a055d5fe47d_m.png
3021,大船渡市,39.085906,141.710256,https://local.pokemon.jp/img/p/manhole/f7c29ccbcee1c86abe67c6c5df162231_m.png
3022,釜石市,39.326865,141.887862,https://local.pokemon.jp/img/p/manhole/ef0d3f35693fea34981a2a6c5e14104f_m.png
3023,大槌町,39.357255,141.90316,https://local.pokemon.jp/img/p/manhole/1500f5e64d9158b2504bff2a8b9874da_m.png
3024,山田町,39.464186,141.951043,https://local.pokemon.jp/img/p/manhole/54a462f0357b55fb5dfcac3067901572_m.png
3025,宮古市,39.639471,141.969701,https://local.pokemon.jp/img/p/manhole/3de728b1129d289ee8a8cfdc453d1beb_m.png
3026,田野畑村,39.916682,141.938688,https://local.pokemon.jp/img/p/manhole/9a02cf6fca246847485b2f0e17e2088a_m.png
3027,岩泉町,39.86044,141.796532,https://local.pokemon.jp/img/p/manhole/fd8ca30f4138a318860f226d8c6c99fc_m.png
3028,普代村,40.002821,141.885736,https://local.pokemon.jp/img/p/manhole/20fa066c221649e42e0aaf974678c05c_m.png
3029,野田村,40.082726,141.828678,https://local.pokemon.jp/img/p/manhole/b30c30e0cdf7b450379ca2f43faa3aac_m.png
3030,久慈市,40.189742,141.765832,https://local.pokemon.jp/img/p/manhole/ce6927c9ff939ee9cb4936e6480b8333_m.png
3031,洋野町,40.406101,141.719531,https://local.pokemon.jp/img/p/manhole/03c8da68d0400d4eaf0d9bf03d274f98_m.png
4001,加瀬沼公園,38.311641,140.983236,https://local.pokemon.jp/img/p/manhole/416bb8faf8d814dec25f300d3bf43db9_m.png
4002,美里町,38.489061,141.133053,https://local.pokemon.jp/img/p/manhole/e491789809d4a47d823bfe69df54712c_m.png
4003,涌谷町,38.5392702,141.1267433,https://local.pokemon.jp/img/p/manhole/f1eb53fbcfe726de54e319a9741feed6_m.png
4004,加美町,38.57215,140.72859,https://local.pokemon.jp/img/p/manhole/122780b137abcc24c9987cd2842f4e9e_m.png
4005,色麻町,38.530136,140.861420,https://local.pokemon.jp/img/p/manhole/f153fccd4c39fd161721923ee9a1b1db_m.png
4006,大衡村,38.46943814,140.8902292,https://local.pokemon.jp/img/p/manhole/a6650f6580df0e0e5debb154e1d26824_m.png
4007,大郷町,38.424016,140.992673,https://local.pokemon.jp/img/p/manhole/e4d64849c631f1c55792c162210f83ca_m.png
4008,大和町,38.437364,140.885648,https://local.pokemon.jp/img/p/manhole/6de105f2caa9cb35a27919fff3c43711_m.png
4009,丸森町,37.913873,140.762531,https://local.pokemon.jp/img/p/manhole/08419931d6fb8bc4d905064bbf5ac63f_m.png
4010,川崎町,38.177534,140.643653,https://local.pokemon.jp/img/p/manhole/8d71ae197fd04fb3260e7d1a0696b39d_m.png
4011,柴田町,38.059143,140.768239,https://local.pokemon.jp/img/p/manhole/db51e7b93287a6d4f02f087a430671d5_m.png
4012,村田町,38.119071,140.717821,https://local.pokemon.jp/img/p/manhole/a7f0559fbfff47ad99d14e2013f91d5c_m.png
4013,大河原町,38.0485032,140.738089,https://local.pokemon.jp/img/p/manhole/b842dfc9874d2e09445e1fc3f38ad9ac_m.png
4014,七ヶ宿町,37.982523,140.46662,https://local.pokemon.jp/img/p/manhole/e57d517a9ceb4985880cf3dc6d58b304_m.png
4015,蔵王町,38.123663,140.577192,https://local.pokemon.jp/img/p/manhole/e293e09c17892a05563f1b2726ed2877_m.png
4016,富谷市,38.398336,140.8875,https://local.pokemon.jp/img/p/manhole/eb65307347f95b410b10f6de91169728_m.png
4017,大崎市,38.571356,140.967465,https://local.pokemon.jp/img/p/manhole/60a517309907d70d3227450081b4ca08_m.png
4018,栗原市,38.794479,140.844403,https://local.pokemon.jp/img/p/manhole/495aa4a82e4831df7c4df483ec3818a8_m.png
4019,登米市,38.616649,141.235491,https://local.pokemon.jp/img/p/manhole/0276a1166ecab2b87231d3556c765167_m.png
4020,角田市,37.968694,140.807077,https://local.pokemon.jp/img/p/manhole/8773aebd30abe08aa9ad070610b62d93_m.png
4021,白石市,38.002511,140.61735,https://local.pokemon.jp/img/p/manhole/d86f9fbdc323ccf8a44a1cc61f14cf5a_m.png
4022,山元町,37.923988,140.900996,https://local.pokemon.jp/img/p/manhole/da648e1b955aa58ff9d29764c3b14098_m.png
4023,亘理町,38.04217,140.915724,https://local.pokemon.jp/img/p/manhole/31b568509d0a74bdd6d418b9107da7ea_m.png
4024,岩沼市,38.105296,140.866325,https://local.pokemon.jp/img/p/manhole/122c918889a88df0101103652da66ffc_m.png
4025,名取市,38.17213,140.954044,https://local.pokemon.jp/img/p/manhole/b66498501b206eb2ec6a710f114c44bd_m.png
4026,仙台市,38.258587,140.872666,https://local.pokemon.jp/img/p/manhole/6e116f60e1990858c1709d0ad7168ed0_m.png
4027,多賀城市,38.291943,141.007158,https://local.pokemon.jp/img/p/manhole/cf7ba94b9548c4c34a1904f0a45ffd48_m.png
4028,七ヶ浜町,38.304315,141.083342,https://local.pokemon.jp/img/p/manhole/75e862975740feba88601a636fc95395_m.png
4029,利府町,38.329512,140.975248,https://local.pokemon.jp/img/p/manhole/c696ccb7c089d73174b41ab9fca770c8_m.png
4030,塩竈市,38.318226,141.023075,https://local.pokemon.jp/img/p/manhole/879f9a0774db8f5a92918b55779f41de_m.png
4031,松島町,38.368987,141.061207,https://local.pokemon.jp/img/p/manhole/21ee5b603bbc503949a5160aac6211c9_m.png
4032,東松島市,38.379414,141.15671,https://local.pokemon.jp/img/p/manhole/c90a0f605f37f87cfefb496c80e8a0dc_m.png
4033,石巻市,38.433844,141.303041,https://local.pokemon.jp/img/p/manhole/a6ba2f448a32de55a112c963c72589aa_m.png
4034,女川町,38.445695,141.44623,https://local.pokemon.jp/img/p/manhole/bba07094c6513abf7611f18f842b4c11_m.png
4035,南三陸町,38.717061,141.521150,https://local.pokemon.jp/img/p/manhole/21dc0ec65a1eb468c86d336ad90ea120_m.png
4036,気仙沼市,38.905694,141.574667,https://local.pokemon.jp/img/p/manhole/196cb20d603ee6eae87932a61344e7e3_m.png
5001,仙北市,39.699992,140.662631,https://local.pokemon.jp/img/p/manhole/e2e2f0492f0c7751a975073c6ec29d61_m.png
5002,鹿角市,40.181213,140.785474,https://local.pokemon.jp/img/p/manhole/01e7a194efa8ccf1f402fd3748124ea6_m.png
5003,男鹿市,39.88201,139.84772,https://local.pokemon.jp/img/p/manhole/f472a2f36f3ef6d95fc671aa272be760_m.png
5004,横手市,39.293561,140.545941,https://local.pokemon.jp/img/p/manhole/77213c59ad91f8db66797f0066bc9b6e_m.png
5005,秋田市,39.752642,140.061295,https://local.pokemon.jp/img/p/manhole/75d7b8121f07fb3655b214e5bc97fd10_m.png
6001,鶴岡市,38.721151,139.684635,https://local.pokemon.jp/img/p/manhole/682832fc77641227f5f45a0ba883c392_m.png
6002,小国町,38.072713,139.73128,https://local.pokemon.jp/img/p/manhole/af8622d0fb9c0dcd8ae7662c09346e5f_m.png
6003,大蔵村,38.611083,140.169653,https://local.pokemon.jp/img/p/manhole/756596314ba4cb80fcddec5aacd40fa7_m.png
6004,寒河江市,38.363842,140.266370,https://local.pokemon.jp/img/p/manhole/c09268e65f3623546d6818d5ad41f872_m.png
6005,山形市,38.248477,140.325854,https://local.pokemon.jp/img/p/manhole/d83e17697e33d9ed20040ea92890fa38_m.png
7001,白河市,37.1296,140.212974,https://local.pokemon.jp/img/p/manhole/9f523b52954278d31137611b04cae08f_m.png
7002,平田村,37.262128,140.547538,https://local.pokemon.jp/img/p/manhole/1e873a3be5ea9c32be9dc36e0e501f99_m.png
7003,広野町,37.23297,141.0018,https://local.pokemon.jp/img/p/manhole/472d481f4f93133c377f8e220abc5dca_m.png
7004,国見町,37.872639,140.546861,https://local.pokemon.jp/img/p/manhole/be6d25642a21e17dac465e21aa08372c_m.png
7005,湯川村,37.55742,139.862167,https://local.pokemon.jp/img/p/manhole/8365c7bd00bdd8d2c9a777fde01d9a6d_m.png
7006,棚倉町,37.029237,140.387151,https://local.pokemon.jp/img/p/manhole/72eb2c8e38d7e27e9a4df0d1b68f7458_m.png
7007,鏡石町,37.251117,140.347153,https://local.pokemon.jp/img/p/manhole/80227c9271b9281cb486741200d56324_m.png
7008,会津坂下町,37.56046,139.821186,https://local.pokemon.jp/img/p/manhole/0f579224c6b8b65ba3e6230a35d0401d_m.png
7009,三春町,37.4433,140.49124,https://local.pokemon.jp/img/p/manhole/726c846d91cf52f7516cf1e6401637b7_m.png
7010,古殿町,37.092891,140.529308,https://local.pokemon.jp/img/p/manhole/2b62ebefd99578ba22804a9f3d8cbd5e_m.png
7011,矢吹町,37.21842,140.335635,https://local.pokemon.jp/img/p/manhole/2602675c5b001db979a74bfda76749aa_m.png
7012,西郷村,37.1399,140.15467,https://local.pokemon.jp/img/p/manhole/1177578c6fc8b006e9b2e53ac8ea99cd_m.png
7013,会津美里町,37.455169,139.840297,https://local.pokemon.jp/img/p/manhole/0f281a785f667a4ee9bac0d93500476a_m.png
7014,猪苗代町,37.538088,140.107569,https://local.pokemon.jp/img/p/manhole/2472c4c2415ec4c71ca043ba35fbbd1b_m.png
7015,北塩原村,37.656148,140.089446,https://local.pokemon.jp/img/p/manhole/79e3301122aa9216bddd37f23732abff_m.png
7016,伊達市,37.760799,140.691402,https://local.pokemon.jp/img/p/manhole/1e3c96c981ef34d92e733c0ecf2590cb_m.png
7017,二本松市,37.593347,140.464001,https://local.pokemon.jp/img/p/manhole/0d3e282f7e5ed43a671c095bc963353b_m.png
7018,飯舘村,37.698145,140.735552,https://local.pokemon.jp/img/p/manhole/3260540897d76440bd153d443780999d_m.png
7019,双葉町,37.45745,141.02692,https://local.pokemon.jp/img/p/manhole/8d9e484d1f4e4ded757f196708543042_m.png
7020,昭和村,37.325691,139.630641,https://local.pokemon.jp/img/p/manhole/6b321ff06f50ac051b7f30760a91a093_m.png
7021,柳津町,37.528189,139.722662,https://local.pokemon.jp/img/p/manhole/d2bf4080f4238cfa64011f8329c35fd1_m.png
7022,南会津町,37.2057204,139.7778739,https://local.pokemon.jp/img/p/manhole/50c29ca481ea4d2f804361c903447b30_m.png
7023,郡山市,37.396784,140.35612,https://local.pokemon.jp/img/p/manhole/ca3e03abbe191764b6fde926eed1a5da_m.png
7024,会津若松市,37.461146,139.927445,https://local.pokemon.jp/img/p/manhole/1adfd8a3e9e1b10828f4e0deefa93853_m.png
7025,福島市,37.80441,140.41091,https://local.pokemon.jp/img/p/manhole/51ecc24c889978ded00d42af017a2958_m.png
7026,川内村,37.329458,140.82162,https://local.pokemon.jp/img/p/manhole/c846e8317054bcfad601d9de4ed1bddb_m.png
7027,田村市,37.344423,140.674289,https://local.pokemon.jp/img/p/manhole/482de2cc901ee6970a9196ef63fcc05b_m.png
7028,川俣町,37.667671,140.57675,https://local.pokemon.jp/img/p/manhole/b65e0102732f5ec6a2473bd0372bb6c3_m.png
7029,いわき市,37.1073084,140.9932743,https://local.pokemon.jp/img/p/manhole/8f4823eaabb4acedd31afc1be79c0bd8_m.png
7030,楢葉町,37.2501442,140.9975789,https://local.pokemon.jp/img/p/manhole/912960b2605434d5780a92ab51dd92b9_m.png
7031,浪江町,37.496395,141.000919,https://local.pokemon.jp/img/p/manhole/e0030b2398b3c23c69eeb288202d02bb_m.png
7032,南相馬市,37.63577,140.983041,https://local.pokemon.jp/img/p/manhole/438cf3fd7fda58f2fb64fe9a8cae6d5f_m.png
7033,相馬市,37.827708,140.963244,https://local.pokemon.jp/img/p/manhole/4b56f3842cbe9066c7d01f0c9df96c92_m.png
7034,新地町,37.878748,140.925027,https://local.pokemon.jp/img/p/manhole/3551920549897ca17bd2d417b3461b56_m.png
8001,水戸市,36.372273,140.452358,https://local.pokemon.jp/img/p/manhole/223f1b131033a42ab2891fecab366ef0_m.png
8002,常陸太田市,36.510672,140.525632,https://local.pokemon.jp/img/p/manhole/22efba09e43fc13bf4834b0f6157cde5_m.png
8003,つくば市,36.08581,140.110839,https://local.pokemon.jp/img/p/manhole/9849d1409331da248994adbdfce3509b_m.png
8004,筑西市,36.322445,139.994116,https://local.pokemon.jp/img/p/manhole/077e657dad03480b92569da298fdd44b_m.png
8005,神栖市,35.897341,140.649095,https://local.pokemon.jp/img/p/manhole/b7ce2257a00adad91661a580d6305fd4_m.png
9001,宇都宮市,36.57228,139.88722,https://local.pokemon.jp/img/p/manhole/614ba5f80e044574e4f5fa79677fa37f_m.png
9002,宇都宮市,36.63422,139.83102,https://local.pokemon.jp/img/p/manhole/e3b4858f5d9d3e0dc78c355976453448_m.png
9003,宇都宮市,36.56077,139.909489,https://local.pokemon.jp/img/p/manhole/52fdbecd02d60456608847e86f3e8964_m.png
11001,所沢市,35.798734,139.471991,https://local.pokemon.jp/img/p/manhole/aeaf1d2fff879ae33fca2eb1ba4a69e8_m.png
11002,所沢市,35.786887,139.472881,https://local.pokemon.jp/img/p/manhole/5296fd3ea597bbc66ac66444cd22cbf3_m.png
11003,所沢市,35.797482,139.505528,https://local.pokemon.jp/img/p/manhole/f2dfd29ec753fb46d12d81af9736e548_m.png
12001,香取市,35.896204,140.506419,https://local.pokemon.jp/img/p/manhole/23d6d594e7a3c463148f8a6122377134_m.png
12002,香取市,35.928206,140.523401,https://local.pokemon.jp/img/p/manhole/0ca06ae099f30906d35f7061ac70f433_m.png
12003,香取市,35.888376,140.497568,https://local.pokemon.jp/img/p/manhole/e20be7f7c65fda5d7808a88ca8ed6d78_m.png
12004,香取市,35.894417,140.493902,https://local.pokemon.jp/img/p/manhole/c9284e72a57917ac1347408c2c48b8a7_m.png
13001,ポケパークカントー,35.62637,139.521513,https://local.pokemon.jp/img/p/manhole/174a9314ce4371b180c70d3f43232c4e_m.png
13002,台東区上野,35.717715,139.775397,https://local.pokemon.jp/img/p/manhole/eb25062c31cfbbbf2e120451b3b76492_m.png
13003,台東区上野,35.716810,139.776399,https://local.pokemon.jp/img/p/manhole/461c1ae602ab3848aaa395fd03e5fa00_m.png
13004,小笠原村,27.09448,142.19235,https://local.pokemon.jp/img/p/manhole/e7ddf7adbf8b01ad1e4c6ffd6c931352_m.png
13005,小笠原村,27.094596,142.192781,https://local.pokemon.jp/img/p/manhole/a0a9f2d7186f56fedadabc010c395e83_m.png
13006,小笠原村,27.094708,142.193279,https://local.pokemon.jp/img/p/manhole/12cfb1b31e8a73d64c0467c702e420f7_m.png
13007,小笠原村,27.094863,142.194033,https://local.pokemon.jp/img/p/manhole/f8bada1702ac9b24058746e324095bac_m.png
13008,町田市,35.546713,139.45398,https://local.pokemon.jp/img/p/manhole/5ad8fe31b6a39f7b0d1dcbc4d366b54b_m.png
13009,町田市,35.545645,139.45488,https://local.pokemon.jp/img/p/manhole/0a991953b4543cb86f11bc3581aae7d1_m.png
13010,町田市,35.546111,139.45436,https://local.pokemon.jp/img/p/manhole/f440e59f4dc8e8eb3d6dbc063c121101_m.png
13011,町田市,35.545302,139.45501,https://local.pokemon.jp/img/p/manhole/6f89f0fea8421c663d939f07d9d3e170_m.png
13012,町田市,35.548171,139.4513,https://local.pokemon.jp/img/p/manhole/5a62f4b93b6a63de11a8f9ff794e48ca_m.png
13013,町田市,35.548108,139.45034,https://local.pokemon.jp/img/p/manhole/4c77c6c7e731ed37ef071ab402d5c1bd_m.png
14001,横浜市,35.453319,139.631688,https://local.pokemon.jp/img/p/manhole/ac4ed4c5f7ff0704cd3e3bc890c7a217_m.png
14002,横浜市,35.458698,139.638331,https://local.pokemon.jp/img/p/manhole/3a15037b379ab433f3c857ef5d2535eb_m.png
14003,横浜市,35.443707,139.650904,https://local.pokemon.jp/img/p/manhole/680c8828351a0c325e338868e99f0a0a_m.png
14004,横浜市,35.451037,139.644154,https://local.pokemon.jp/img/p/manhole/022cc45747413f97e8b5bf0873da6695_m.png
14005,横浜市,35.451167,139.631501,https://local.pokemon.jp/img/p/manhole/dd60987af1dda49a37486a2cbcb4d407_m.png
15001,小千谷市,37.314301,138.7835,https://local.pokemon.jp/img/p/manhole/1779749989a248a4d80438774bd31c5c_m.png
15002,小千谷市,37.311028,138.795653,https://local.pokemon.jp/img/p/manhole/1eb3ac5b96b69515307e7b8d461b83b7_m.png
15003,小千谷市,37.309883,138.812939,https://local.pokemon.jp/img/p/manhole/b8e14abca7704ade92d80850c539bfa8_m.png
15004,小千谷市,37.314216,138.794792,https://local.pokemon.jp/img/p/manhole/cb0b83a72c4a02d3828408438fe69c79_m.png
16001,富山市,36.692325,137.210281,https://local.pokemon.jp/img/p/manhole/6c44395065c204322fb25c9d622810f6_m.png
16002,富山市,36.70987,137.213161,https://local.pokemon.jp/img/p/manhole/63bb2eadb08b4706570c5bee8384d345_m.png
16003,富山市,36.715615,137.164366,https://local.pokemon.jp/img/p/manhole/3d9b3d56b93482869a6a2c7474c4be35_m.png
17001,金沢市,36.559162,136.661926,https://local.pokemon.jp/img/p/manhole/c940415d26bf0831bbc369b7616083e1_m.png
18001,越前町,35.93468,136.05872,https://local.pokemon.jp/img/p/manhole/a4b9ed8fd6f982a51e508d614e8bc9c7_m.png
18002,若狭町,35.461441,135.860204,https://local.pokemon.jp/img/p/manhole/a24ce3b6e6ded0b78634c88d850a1f93_m.png
18003,鯖江市,35.950098,136.181116,https://local.pokemon.jp/img/p/manhole/602c4f607f16ab68a51dda3da2b63bac_m.png
18004,おおい町,35.48179,135.62838,https://local.pokemon.jp/img/p/manhole/bc3a6278d1b847a6c3ee8d6a320303c8_m.png
18005,福井市,36.061483,136.223635,https://local.pokemon.jp/img/p/manhole/01f288197426c4ecd10018babaf52ce1_m.png
18006,坂井市,36.161806,136.333313,https://local.pokemon.jp/img/p/manhole/292964dec0cb7ddb638e94dcd4388ad1_m.png
18007,池田町,35.890505,136.339213,https://local.pokemon.jp/img/p/manhole/9144ea3aa592e063e8c206726ea9a5a1_m.png
18008,小浜市,35.494981,135.741761,https://local.pokemon.jp/img/p/manhole/4d9f218970b4bfd3c8d6020a4f155050_m.png
18009,南越前町,35.831454,136.201365,https://local.pokemon.jp/img/p/manhole/9dcb25b385c233d8d26af0040a30d329_m.png
18010,敦賀市,35.661865,136.074281,https://local.pokemon.jp/img/p/manhole/f25d208e515596f3044c613f8c221a7d_m.png
18011,大野市,35.9845016,136.4859314,https://local.pokemon.jp/img/p/manhole/4004f0ce0f42a5ef7a83d3a2e31c2849_m.png
18012,美浜町,35.604507,135.936876,https://local.pokemon.jp/img/p/manhole/aa96cff87252e9d15d1050c3dfdb32b9_m.png
18013,高浜町,35.492951,135.54556,https://local.pokemon.jp/img/p/manhole/40a7836c54804faf50d4fec9edf7b2cf_m.png
18014,永平寺町,36.079891,136.399312,https://local.pokemon.jp/img/p/manhole/82eb8843dce5a6e807c44b4d02cac7f4_m.png
18015,越前市,35.895286,136.198727,https://local.pokemon.jp/img/p/manhole/ae37578bd4f8d92f43b00865ff9a4592_m.png
18016,あわら市,36.215613,136.234226,https://local.pokemon.jp/img/p/manhole/6a7679a424968fb14c2d9d0de5761ac7_m.png
18017,勝山市,36.056787,136.492007,https://local.pokemon.jp/img/p/manhole/8911ceb39e882e398c2d3ce2c706e4cd_m.png
21001,高山市,36.144911,137.257235,https://local.pokemon.jp/img/p/manhole/1a58002d4c3745b11517f8eeae645f82_m.png
21002,関ケ原町,35.36402,136.46842,https://local.pokemon.jp/img/p/manhole/e417eecf891ba9e041c137c544a8b57a_m.png
21003,関市,35.490472,136.91225,https://local.pokemon.jp/img/p/manhole/e2886e52fc662f5a6a64616a5355b250_m.png
21004,下呂市,35.807771,137.242963,https://local.pokemon.jp/img/p/manhole/61f691b88819240129496347dde2c36b_m.png
21005,各務原市,35.37067,136.807773,https://local.pokemon.jp/img/p/manhole/9b3860d131b58b6066c6d4237d0cdb6b_m.png
22001,伊豆市,34.970285,138.927740,https://local.pokemon.jp/img/p/manhole/54b23fd2424c86f488e780a6dd137276_m.png
22002,富士市,35.161532,138.617705,https://local.pokemon.jp/img/p/manhole/dd4782c37fab19b0621283b4e8253ffa_m.png
22003,沼津市,35.081579,138.854731,https://local.pokemon.jp/img/p/manhole/69a0c3234cff806f768ffdd1db611679_m.png
22004,浜松市,34.704017,137.732587,https://local.pokemon.jp/img/p/manhole/e7918b84cc982219422e8d442611a8fe_m.png
22005,静岡市,34.977499,138.382564,https://local.pokemon.jp/img/p/manhole/2b3b0900b7cdfb28b04ebb960c115ec9_m.png
23001,西尾市,34.867221,137.048298,https://local.pokemon.jp/img/p/manhole/b8558e0a74714d9f0519a90cbffb2bd8_m.png
23002,刈谷市,35.04095,137.0481,https://local.pokemon.jp/img/p/manhole/b74fd1d13c5402743ee665a0b7b52adc_m.png
23003,常滑市,34.88566,136.8231592,https://local.pokemon.jp/img/p/manhole/9e73d3dac08706213606acfa5508d3f2_m.png
23004,瀬戸市,35.2257073,137.1008385,https://local.pokemon.jp/img/p/manhole/f11b36b1639166804131d9e464fac8d9_m.png
23005,名古屋市,35.1831277,136.9045981,https://local.pokemon.jp/img/p/manhole/1e8ca4125f1e840c139362bef0854ae6_m.png
23006,豊橋市,34.72096,137.429448,https://local.pokemon.jp/img/p/manhole/e42f805cec6afc6610bf3fb60fa1302e_m.png
23007,豊橋市,34.695901,137.413953,https://local.pokemon.jp/img/p/manhole/81a26e93499f4f7b7646f134dceaf98e_m.png
23008,豊橋市,34.762599,137.382958,https://local.pokemon.jp/img/p/manhole/149f024197e1e9af562412f1f861e87b_m.png
23009,豊橋市,34.768863,137.393843,https://local.pokemon.jp/img/p/manhole/2b38fff3956d1bef47f96d05ce465f6f_m.png
24001,鈴鹿市,34.852227,136.538663,https://local.pokemon.jp/img/p/manhole/7f1168d3590ddc36c4964cd276776c02_m.png
24002,鳥羽市,34.490787,136.844965,https://local.pokemon.jp/img/p/manhole/a874515ca910cf36ecbd58a130bbb89d_m.png
24003,御浜町,33.80391,136.04345,https://local.pokemon.jp/img/p/manhole/598c154d6772e0df2a69b8aa78f442ef_m.png
24004,紀北町,34.216869,136.346376,https://local.pokemon.jp/img/p/manhole/de7b40100ef8846319095eeda71c4089_m.png
24005,大紀町,34.297193,136.399061,https://local.pokemon.jp/img/p/manhole/f435d5251cfe91fa5532d1ab26ca47e4_m.png
24006,菰野町,35.019585,136.506542,https://local.pokemon.jp/img/p/manhole/db40a95379113f5cdffb84dc02a956e7_m.png
24007,いなべ市,35.15788,136.51618,https://local.pokemon.jp/img/p/manhole/17c4234b2ec1619a5801f73f87742e27_m.png
24008,尾鷲市,34.06078,136.216025,https://local.pokemon.jp/img/p/manhole/a9212a2a3b6d5b9347985b9ccd1beb0e_m.png
24009,桑名市,35.08304,136.703006,https://local.pokemon.jp/img/p/manhole/34f38b612591f542f7cde91c92431fe1_m.png
24010,南伊勢町,34.268997,136.54891,https://local.pokemon.jp/img/p/manhole/43f237d285100171554ac6f1a0b3d5ae_m.png
24011,玉城町,34.4678411,136.5876056,https://local.pokemon.jp/img/p/manhole/44742a17501610a31bcbed2c84e725ff_m.png
24012,松阪市,34.578655,136.519839,https://local.pokemon.jp/img/p/manhole/5fd9256575a991a946731d58af9d9177_m.png
24013,多気町,34.4661660,136.5537339,https://local.pokemon.jp/img/p/manhole/3079076ac9d1bd591d3d9fed6d5490bf_m.png
24014,川越町,35.01731,136.659834,https://local.pokemon.jp/img/p/manhole/54d0f6d4443b068cf2328ea975e6f54a_m.png
24015,鈴鹿市,34.823065,136.584609,https://local.pokemon.jp/img/p/manhole/5e7b0f7a590d610047c48864ebaa692f_m.png
24016,東員町,35.073792,136.581108,https://local.pokemon.jp/img/p/manhole/73080cfd2979568b56409864ffb75c41_m.png
24017,木曽岬町,35.0755751,136.7318048,https://local.pokemon.jp/img/p/manhole/063983c387a9eb6bb1ca4748018fb7df_m.png
24018,名張市,34.626212,136.088911,https://local.pokemon.jp/img/p/manhole/be9daa94605e7406128c8aef5c159b77_m.png
24019,紀宝町,33.769742,136.028632,https://local.pokemon.jp/img/p/manhole/11b856a2714d8732b97c4de3a3eb54b3_m.png
24020,度会町,34.4320615,136.6313249,https://local.pokemon.jp/img/p/manhole/08fd5108b2fa7f649a3b4288b51dbb81_m.png
24021,大台町,34.356007,136.34766,https://local.pokemon.jp/img/p/manhole/3d94649159a7193785e0d718e9419ae4_m.png
24022,明和町,34.5399661,136.6184925,https://local.pokemon.jp/img/p/manhole/5d34514d91c421e7eb38d33dd3aa4d5e_m.png
24023,朝日町,35.037263,136.658857,https://local.pokemon.jp/img/p/manhole/13bc40cf9c71d3585a1d7250ec072043_m.png
24024,亀山市,34.8594415,136.4474608,https://local.pokemon.jp/img/p/manhole/e576fe03cd6caedf734295b94e40b1d3_m.png
24025,伊賀市,34.767543,136.130081,https://local.pokemon.jp/img/p/manhole/871d23d6e3da74231cd6d0c402b2ec3e_m.png
24026,志摩市,34.275988,136.898317,https://local.pokemon.jp/img/p/manhole/2ff24b4155bf1e32a81d809c7e8fa0c4_m.png
24027,熊野市,33.891753,136.116125,https://local.pokemon.jp/img/p/manhole/642d73fc0560c98d9bb2123d61fe178a_m.png
24028,鳥羽市,34.48691,136.844825,https://local.pokemon.jp/img/p/manhole/c59edcc8c3f844e2d4b2d50b5b63f70e_m.png
24029,伊勢市,34.487787,136.707097,https://local.pokemon.jp/img/p/manhole/a61f60d4ef8ae9a401cc322fe9953951_m.png
24030,四日市市,34.952407,136.611964,https://local.pokemon.jp/img/p/manhole/38c81224354dc5eded2c52057638d817_m.png
24031,津市,34.718493,136.5108,https://local.pokemon.jp/img/p/manhole/ff1d441d552b5c89cd7254c986834349_m.png
25001,甲賀市,34.900437,136.229399,https://local.pokemon.jp/img/p/manhole/723d14bb4afb1187b258976aa5094e0a_m.png
25002,甲賀市,34.960528,136.165168,https://local.pokemon.jp/img/p/manhole/696baacc3630dbd8654850d1fb764e25_m.png
25003,甲賀市,34.919591,136.170196,https://local.pokemon.jp/img/p/manhole/675edfc1e37d6a294429a9e35ed48504_m.png
25004,大津市,34.9981,135.8946,https://local.pokemon.jp/img/p/manhole/d457b0b0d22eb88c9ef87d755c435ee0_m.png
25005,大津市,35.0102,135.8699,https://local.pokemon.jp/img/p/manhole/e70ea99b7ee9eedea0e19e6cebe5d895_m.png
26001,ニンテンドーミュージアム,34.892561,135.784525,https://local.pokemon.jp/img/p/manhole/47baa8ef80858e014f938cb01f16ab7b_m.png
26002,宇治市,34.895547,135.805962,https://local.pokemon.jp/img/p/manhole/11fd9be6e92dc0be962656f7c238bef0_m.png
26003,宇治市,34.890627,135.809787,https://local.pokemon.jp/img/p/manhole/ba4d976110fe6bb12c1e0b7c0a312f7b_m.png
26004,京都市,34.987804,135.743538,https://local.pokemon.jp/img/p/manhole/e923d93de75da9471bc1eb6b2504b721_m.png
26005,京都市,35.014858,135.782013,https://local.pokemon.jp/img/p/manhole/6e0c231cc1175791b00694844dc42904_m.png
26006,京都市,34.994784,135.714323,https://local.pokemon.jp/img/p/manhole/b6f13ec6de50c92ec0733c3a0a052095_m.png
26007,京都市,35.00337,135.780573,https://local.pokemon.jp/img/p/manhole/61ed5a9f280a92b6a49269897c80870c_m.png
26008,京都市,35.011863,135.678745,https://local.pokemon.jp/img/p/manhole/dadd75c86a5e66bf5392ba13716c2dfe_m.png
27001,東大阪市,34.669486,135.630586,https://local.pokemon.jp/img/p/manhole/c5b049a0ebabbe4653c901d1d7d285a5_m.png
27002,東大阪市,34.667678,135.626309,https://local.pokemon.jp/img/p/manhole/d39830afa4791086bcb803f16950c7a2_m.png
27003,東大阪市,34.680678,135.650788,https://local.pokemon.jp/img/p/manhole/82bcc43d44a0c0ce158820a770ea8abb_m.png
27004,東大阪市,34.66771,135.63989,https://local.pokemon.jp/img/p/manhole/cd700d469950e929688fda7b763b46b9_m.png
27005,東大阪市,34.679788,135.601221,https://local.pokemon.jp/img/p/manhole/8b79e350ab1d04a38f8dffc6baed16e5_m.png
28001,淡路市,34.482151,134.873103,https://local.pokemon.jp/img/p/manhole/8e5813792f66a65c189ff519bafd76e8_m.png
28002,淡路市,34.550436,134.938094,https://local.pokemon.jp/img/p/manhole/521884db6e67a711689a534f225e5555_m.png
28003,淡路市,34.601828,135.009441,https://local.pokemon.jp/img/p/manhole/3b9a7a603fe46a8c9ca44daa6d465c4e_m.png
29001,斑鳩町,34.60983,135.73529,https://local.pokemon.jp/img/p/manhole/cf516896b4b7eb0cad8e8e3eeebbc99f_m.png
29002,斑鳩町,34.60826,135.73755,https://local.pokemon.jp/img/p/manhole/d0bfb7bbc2a06d730b47b017a3e77cf7_m.png
29003,斑鳩町,34.60827,135.73769,https://local.pokemon.jp/img/p/manhole/138c801dc7696711d46521e013d6d7c3_m.png
29004,斑鳩町,34.60474,135.7376,https://local.pokemon.jp/img/p/manhole/d3e08e12b17d3ff3befcd5225d3af30d_m.png
29005,斑鳩町,34.60189,135.73917,https://local.pokemon.jp/img/p/manhole/8c606a972fea1746e45dea9cf3f87c9e_m.png
30001,那智勝浦町,33.668973,135.902917,https://local.pokemon.jp/img/p/manhole/0647823671ac088cf1c2812389b1b5c9_m.png
30002,串本町,33.517997,135.823074,https://local.pokemon.jp/img/p/manhole/5f390e91fa19495f13ca11ded3be39a0_m.png
30003,白浜町,33.675779,135.387056,https://local.pokemon.jp/img/p/manhole/03e9a0983c54cc918c63b4db3a0fcc5e_m.png
30004,高野町,34.212091,135.583052,https://local.pokemon.jp/img/p/manhole/1361a905da2d83b5309cd04822de4f32_m.png
30005,和歌山市,34.2300173,135.171405,https://local.pokemon.jp/img/p/manhole/e5ee70fdd320e4d6792e7ee9890b2ace_m.png
31001,鳥取市,35.53395,134.224478,https://local.pokemon.jp/img/p/manhole/4ed2700dca6b81175e2041b6015883ad_m.png
31002,江府町,35.295841,133.474089,https://local.pokemon.jp/img/p/manhole/14cce541fd36605c5e7663e88d87aaa7_m.png
31003,日吉津村,35.441126,133.379578,https://local.pokemon.jp/img/p/manhole/3af8acc5e98898f553ef0a9d3472dd75_m.png
31004,北栄町,35.49924,133.81794,https://local.pokemon.jp/img/p/manhole/15da1d7d96977b140743c9ceb0c19a56_m.png
31005,八頭町,35.366456,134.339426,https://local.pokemon.jp/img/p/manhole/e4cc762f5c45d2e3b1c89fe016cad306_m.png
31006,智頭町,35.265428,134.226103,https://local.pokemon.jp/img/p/manhole/9124edb433debfc805f8e3dcf81142ef_m.png
31007,日野町,35.24192,133.441049,https://local.pokemon.jp/img/p/manhole/699a59ecb60c1f784eb89c546316a66c_m.png
31008,日南町,35.170524,133.31094,https://local.pokemon.jp/img/p/manhole/93d997a517ea711ef84cf02652df9b5d_m.png
31009,伯耆町,35.383395,133.458512,https://local.pokemon.jp/img/p/manhole/c2c30a5636c8110a39aa6c37a46833a9_m.png
31010,南部町,35.347474,133.423398,https://local.pokemon.jp/img/p/manhole/d3e1aa315a234beed33b5fdf0e57273f_m.png
31011,大山町,35.504584,133.502093,https://local.pokemon.jp/img/p/manhole/9dbcf5bd5c6c3fe0923fbe26eb38b5fd_m.png
31012,琴浦町,35.506942,133.661612,https://local.pokemon.jp/img/p/manhole/b895c47d2aa420b0ee4f6de752d0b52b_m.png
31013,湯梨浜町,35.478166,133.88401,https://local.pokemon.jp/img/p/manhole/97b31d2afb1854865151081ffff89c13_m.png
31014,三朝町,35.409324,133.894397,https://local.pokemon.jp/img/p/manhole/fa7745d9d2cf27532ece0df7ae94cdef_m.png
31015,若桜町,35.343951,134.400345,https://local.pokemon.jp/img/p/manhole/89266fc70148e3988d2505b8bebec5e7_m.png
31016,岩美町,35.590938,134.321556,https://local.pokemon.jp/img/p/manhole/abf9db7af4414278a820045649dd91b9_m.png
31017,境港市,35.521481,133.258356,https://local.pokemon.jp/img/p/manhole/f6da3dcbdb1a5e3805efeae1aed62a31_m.png
31018,倉吉市,35.454272,133.850116,https://local.pokemon.jp/img/p/manhole/5eab25e1ec94bbda4e016964c1e4c0c2_m.png
31019,米子市,35.456258,133.361525,https://local.pokemon.jp/img/p/manhole/d41137bea205741d5a7f4cb7e5646494_m.png
31020,鳥取市,35.539668,134.237266,https://local.pokemon.jp/img/p/manhole/ff3da633c56590b1692d2cc729807dd8_m.png
32001,隠岐の島町,36.17725248,133.3302467,https://local.pokemon.jp/img/p/manhole/b9231fe3c20c2f21aa3b59fa2e15d2c9_m.png
32002,安来市,35.428407,133.259012,https://local.pokemon.jp/img/p/manhole/626d7178748566491c9757ab1611d4b6_m.png
32003,大田市,35.145782,132.413128,https://local.pokemon.jp/img/p/manhole/24ee50a876d722099a40bd736aa424d0_m.png
32004,出雲市,35.4330088,132.629353,https://local.pokemon.jp/img/p/manhole/3c9c0b472e5a716415b65f5fd222035c_m.png
32005,浜田市,34.88924,132.07129,https://local.pokemon.jp/img/p/manhole/b394f41c1a92270caadde96879540675_m.png
33001,倉敷市,34.59829,133.77029,https://local.pokemon.jp/img/p/manhole/57b32929e283717a3c17bf5694ee5331_m.png
33002,倉敷市,34.59274,133.77046,https://local.pokemon.jp/img/p/manhole/bc3943f41c55662b08fff143d35e6001_m.png
33003,倉敷市,34.59556,133.76888,https://local.pokemon.jp/img/p/manhole/0fece4439cad84d032b8b5b1abe4bfbe_m.png
33004,倉敷市,34.43427,133.81388,https://local.pokemon.jp/img/p/manhole/12a7f3eb91387a2de15ce4a4d07b76d9_m.png
35001,下関市,33.935457,130.929705,https://local.pokemon.jp/img/p/manhole/1bf730cea4b0376a673d2aedefc19ce6_m.png
35002,下関市,33.934094,130.930909,https://local.pokemon.jp/img/p/manhole/19e9d673ad1d496efdf895ddf8b2dd9e_m.png
35003,下関市,33.954627,130.9416769,https://local.pokemon.jp/img/p/manhole/639984e012e0fb49cb6697784322f5a6_m.png
35004,下関市,33.958211,130.948691,https://local.pokemon.jp/img/p/manhole/45b93f3bf2e0617781b54d098c85e938_m.png
36001,鳴門市,34.168084,134.616371,https://local.pokemon.jp/img/p/manhole/b7feef9605334785b629220d93968bd0_m.png
36002,鳴門市,34.181955,134.601709,https://local.pokemon.jp/img/p/manhole/ec4704ac964ad623fcdc8e707c4cab98_m.png
36003,鳴門市,34.224106,134.636196,https://local.pokemon.jp/img/p/manhole/db86984d919f6b77c13d3595895d4033_m.png
37001,綾川町,34.247395,133.9327735,https://local.pokemon.jp/img/p/manhole/1ec34abda217efe011cff081f744466e_m.png
37002,宇多津町,34.3134259,133.8075257,https://local.pokemon.jp/img/p/manhole/46149907aafef8ebbb532d3adedfc0a6_m.png
37003,まんのう町,34.173339,133.871387,https://local.pokemon.jp/img/p/manhole/f7183a39726aa627e14ad95fbeaf881f_m.png
37004,多度津町,34.272282,133.757247,https://local.pokemon.jp/img/p/manhole/2eeafabec505047777390acd55805848_m.png
37005,琴平町,34.187735,133.819896,https://local.pokemon.jp/img/p/manhole/a657921a86223c0d151c52658fad232b_m.png
37006,綾川町,34.250399,133.917073,https://local.pokemon.jp/img/p/manhole/97364ac57cfec00bae3532e5b86993e1_m.png
37007,直島町,34.455827,133.975492,https://local.pokemon.jp/img/p/manhole/a110919f47d4cf2b904ebc498d449df2_m.png
37008,三木町,34.268586,134.134567,https://local.pokemon.jp/img/p/manhole/5b76f33d2939d085b7b8877e4843b710_m.png
37009,小豆島町,34.4708542,134.2358695,https://local.pokemon.jp/img/p/manhole/e898687780632f41f88293185dc187f9_m.png
37010,土庄町,34.482694,134.187512,https://local.pokemon.jp/img/p/manhole/4ce0a7a8695de3b57c977499c004ae68_m.png
37011,三豊市,34.2687992,133.6322219,https://local.pokemon.jp/img/p/manhole/b28655a215e13414ed57362a65800eef_m.png
37012,東かがわ市,34.251174,134.333457,https://local.pokemon.jp/img/p/manhole/55cd911fc9c25e0e8012891daa24946c_m.png
37013,さぬき市,34.321305,134.173241,https://local.pokemon.jp/img/p/manhole/2f6edaf36ce1857f7f8942cf0bac2b2c_m.png
37014,観音寺市,34.125275,133.655211,https://local.pokemon.jp/img/p/manhole/30dbde7fe8d7f8d0cae358eecebfe44b_m.png
37015,善通寺市,34.22531,133.7773,https://local.pokemon.jp/img/p/manhole/c119928b9d5eaad8001359861af7ccad_m.png
37016,坂出市,34.312992,133.856292,https://local.pokemon.jp/img/p/manhole/c76924a522f5f4c6be3f7495f67175a3_m.png
37017,丸亀市,34.292014,133.793951,https://local.pokemon.jp/img/p/manhole/80456987ca2775b7af3dffce1efbf964_m.png
37018,高松市,34.338888,134.049052,https://local.pokemon.jp/img/p/manhole/3f8606c250a83239f508571b1484d584_m.png
38001,松山市,33.84426,132.74078,https://local.pokemon.jp/img/p/manhole/5cfd8d62b32230e7062a428e6a8d5314_m.png
38002,松山市,33.84106,132.77024,https://local.pokemon.jp/img/p/manhole/2c463a2dd4f605a830d338c012f560f1_m.png
39001,東洋町,33.543168839356774,134.29495896722574,https://local.pokemon.jp/img/p/manhole/299ea9629aaed7f41bf1554d2a09b05a_m.png
39002,香南市,33.534367,133.75346,https://local.pokemon.jp/img/p/manhole/c1359eed647d0b370136b487d0854b70_m.png
39003,宿毛市,32.915754,132.712575,https://local.pokemon.jp/img/p/manhole/d0827223105f6648da72d7595907c786_m.png
39004,須崎市,33.39238098,133.2926446,https://local.pokemon.jp/img/p/manhole/c4bd71337c16e241b3b9203a89f970e8_m.png
39005,安芸市,33.5043207,133.9065445,https://local.pokemon.jp/img/p/manhole/551bad185b3f9a9d17c5f6f40d7febfc_m.png
39006,室戸市,33.325698,134.195181,https://local.pokemon.jp/img/p/manhole/d9bd03a57b3501b93226b157abadbb2d_m.png
39007,三原村,32.922536,132.83982,https://local.pokemon.jp/img/p/manhole/207a12127b5a99f94f0fa04d69543a4a_m.png
39008,大月町,32.767739,132.627259,https://local.pokemon.jp/img/p/manhole/31ea84ec8f10061d987ef8d7fc15c1da_m.png
39009,津野町,33.476856,133.004184,https://local.pokemon.jp/img/p/manhole/7fc86d8a52fce05b93042fe1a127342a_m.png
39010,日高村,33.5335561,133.3712561,https://local.pokemon.jp/img/p/manhole/4ac408636042cae5deaff75207b9bf30_m.png
39011,大豊町,33.749067,133.684166,https://local.pokemon.jp/img/p/manhole/05938aa1104a2226b71dbc2b1e6de194_m.png
39012,奈半利町,33.425249,134.017781,https://local.pokemon.jp/img/p/manhole/9326f1ab7b66840ba918c10e7c8478b2_m.png
39013,香美市,33.695608,133.874784,https://local.pokemon.jp/img/p/manhole/9b80e14141a8c41fc519beaa1bde69f8_m.png
40001,太宰府市,33.505199,130.516571,https://local.pokemon.jp/img/p/manhole/9f18ef1fb249c26b80202eabfd32d469_m.png
40002,太宰府市,33.519356,130.531372,https://local.pokemon.jp/img/p/manhole/5cd7a8385c92d8774ca9fcf6577d93eb_m.png
40003,太宰府市,33.513335,130.515174,https://local.pokemon.jp/img/p/manhole/82a8e4547e0d8ae6938fc9ca802c90e0_m.png
40004,北九州市,33.957206,130.96161,https://local.pokemon.jp/img/p/manhole/8bc29983cee8593f888c394b13b50b06_m.png
40005,北九州市,33.946285,130.964119,https://local.pokemon.jp/img/p/manhole/c61b90c00e7cc84c950a7c030240fc4f_m.png
40006,北九州市,33.871920,130.807892,https://local.pokemon.jp/img/p/manhole/ffa7e3a05b778ee19eb7e1c648fab1d3_m.png
40007,北九州市,33.890528,130.884609,https://local.pokemon.jp/img/p/manhole/19ddba7b284e5f5bc16a8ac6b62776d1_m.png
40008,北九州市,33.884982,130.876213,https://local.pokemon.jp/img/p/manhole/b13f6216991b853d40f37921b7b1a75c_m.png
41001,佐賀市,33.24900974,130.3003128,https://local.pokemon.jp/img/p/manhole/64eddebc32fe29d163ab826aea4181c1_m.png
41002,佐賀市,33.24833583,130.3089011,https://local.pokemon.jp/img/p/manhole/aa70252404971db18df4f2bc527a951c_m.png
41003,佐賀市,33.25075645,130.2989299,https://local.pokemon.jp/img/p/manhole/f7760dab549440c477f8b489e1add1ed_m.png
42001,佐々町,33.254897,129.6589353,https://local.pokemon.jp/img/p/manhole/41ee5c22850c88cabf369c70302bd777_m.png
42002,東彼杵町,33.0357304,129.9194868,https://local.pokemon.jp/img/p/manhole/7e0358daa2f0bd5c89903de1a57cecf8_m.png
42003,時津町,32.831977,129.849052,https://local.pokemon.jp/img/p/manhole/fcac6f042fa67019abd2dca48d815440_m.png
42004,壱岐市,33.81196878,129.6557033,https://local.pokemon.jp/img/p/manhole/e126c5112eda03d677eff9b92cab10cc_m.png
42005,島原市,32.790222,130.370593,https://local.pokemon.jp/img/p/manhole/9bc84a22210b01d1330da1a3d459e5d8_m.png
42006,新上五島町,32.986402,129.112745,https://local.pokemon.jp/img/p/manhole/2f09d6ddf8f545c9a622b7365735839f_m.png
42007,雲仙市,32.74085,130.261106,https://local.pokemon.jp/img/p/manhole/5b656d359478392214ecfa0fdfbd1cb6_m.png
42008,大村市,32.933111,129.958278,https://local.pokemon.jp/img/p/manhole/fd830fce9e6898daa219f632addce1a8_m.png
42009,佐世保市,33.163987,129.724169,https://local.pokemon.jp/img/p/manhole/6440346e37eff89ad1803987d49c5289_m.png
42010,長崎市,32.753712,129.86735,https://local.pokemon.jp/img/p/manhole/8a66b9b0f3d34972338794fc1b07dacd_m.png
45001,五ヶ瀬町,32.679051,131.210041,https://local.pokemon.jp/img/p/manhole/aa92f7d136b868b5252b1fc6994ce947_m.png
45002,日之影町,32.660643,131.388639,https://local.pokemon.jp/img/p/manhole/dbe8fa0ecdf59974cf1c01b55f7f089b_m.png
45003,高千穂町,32.707748,131.305889,https://local.pokemon.jp/img/p/manhole/ba1ab8ae9af98b080f9ed1d867cb75c9_m.png
45004,椎葉村,32.458153,131.153831,https://local.pokemon.jp/img/p/manhole/a612a2a3e3d6d9a6cb7641ce25cfcdb7_m.png
45005,諸塚村,32.509811,131.331498,https://local.pokemon.jp/img/p/manhole/4214e59f59260308035a93441400b6fa_m.png
45006,西米良村,32.223238,131.16329,https://local.pokemon.jp/img/p/manhole/d8eb6198c178641e316d0936fccd06e0_m.png
45007,綾町,31.9989753,131.2537536,https://local.pokemon.jp/img/p/manhole/ec206a3b8bd4d61296485b207d204370_m.png
45008,国富町,31.988591,131.321916,https://local.pokemon.jp/img/p/manhole/73fdb713c9cec2bed36f015248b51725_m.png
45009,高原町,31.907234,130.960187,https://local.pokemon.jp/img/p/manhole/916517348882e6d81c6fd8e163ac8352_m.png
45010,美郷町,32.431976,131.467551,https://local.pokemon.jp/img/p/manhole/338c34ed7b70c9a65755b2894a04ecc1_m.png
45011,門川町,32.487021,131.676733,https://local.pokemon.jp/img/p/manhole/1d1261134ec64c046aacae63dba74c6f_m.png
45012,都農町,32.2609016,131.5575768,https://local.pokemon.jp/img/p/manhole/249dfc49428f58aff38f37c46131982e_m.png
45013,川南町,32.191491,131.528984,https://local.pokemon.jp/img/p/manhole/3da8c4d33f82dbd65c7092f4080c88ab_m.png
45014,木城町,32.1682457,131.4782857,https://local.pokemon.jp/img/p/manhole/dd75e9254b02cf00906b22ece20ed6a2_m.png
45015,新富町,32.073902,131.495719,https://local.pokemon.jp/img/p/manhole/73c6c49f8aa194dcb52da6808758de16_m.png
45016,高鍋町,32.115956,131.532841,https://local.pokemon.jp/img/p/manhole/7020590767375a1d51a3bb6af9b37edf_m.png
45017,三股町,31.73375,131.120309,https://local.pokemon.jp/img/p/manhole/7e8cdc1e3864f6802fe5c7c531f68074_m.png
45018,えびの市,32.050305,130.80595,https://local.pokemon.jp/img/p/manhole/c66068946bb57f85df1cc9221816f761_m.png
45019,西都市,32.106625,131.404508,https://local.pokemon.jp/img/p/manhole/40deb7e698a707b7ae456f46634f6a14_m.png
45020,串間市,31.36627,131.332809,https://local.pokemon.jp/img/p/manhole/eb72ab472d06b001ae7e522937fda3b7_m.png
45021,日向市,32.4253924,131.6277364,https://local.pokemon.jp/img/p/manhole/cce5f8178d3186bff628ad5efe8e9962_m.png
45022,小林市,31.957420,131.126410,https://local.pokemon.jp/img/p/manhole/0dc396d7b4e206b302245cb286cb828c_m.png
45023,日南市,31.58793,131.4017058,https://local.pokemon.jp/img/p/manhole/8ce155eced18eb9355d00e77741e924b_m.png
45024,延岡市,32.684711,131.801103,https://local.pokemon.jp/img/p/manhole/3a5e9189da60b8c54d2ccdbd184dc9dd_m.png
45025,都城市,31.725213,131.0661894,https://local.pokemon.jp/img/p/manhole/669e4e9f0164e147c365f0fa159d5186_m.png
45026,宮崎市,31.807505,131.457839,https://local.pokemon.jp/img/p/manhole/4df805be8a64d2c988d992788be19a9b_m.png
46001,指宿市,31.235444,130.641389,https://local.pokemon.jp/img/p/manhole/5953fdc915091e1bfb6a059b8de5a086_m.png
46002,指宿市,31.231056,130.644611,https://local.pokemon.jp/img/p/manhole/580f382c51079d1d67edbb02d23462f4_m.png
46003,指宿市,31.263889,130.662917,https://local.pokemon.jp/img/p/manhole/079877ac0df6af8da9edc55ca9a06ae8_m.png
46004,指宿市,31.236833,130.642188,https://local.pokemon.jp/img/p/manhole/2662aede3a093feb445970ca2e077f85_m.png
46005,指宿市,31.238278,130.645,https://local.pokemon.jp/img/p/manhole/80a6b07026c38a97c89436f59e3c5cc2_m.png
46006,指宿市,31.229417,130.651972,https://local.pokemon.jp/img/p/manhole/3b15f5b988170e1ac987781317e3e6c4_m.png
46007,指宿市,31.255278,130.647639,https://local.pokemon.jp/img/p/manhole/5c4e9fb2f499dee2fd8206c9a0926294_m.png
46008,指宿市,31.228,130.653028,https://local.pokemon.jp/img/p/manhole/79b15b766a24880ed19bda2ec4863ab2_m.png
46009,指宿市,31.237194,130.642861,https://local.pokemon.jp/img/p/manhole/1a0d76db2fb9b2cd5857ad3ee233e054_m.png
47001,那覇市,26.22005,127.71657,https://local.pokemon.jp/img/p/manhole/6ea8d929a518be32eb78754371390526_m.png
47002,久米島町,26.373985,126.788928,https://local.pokemon.jp/img/p/manhole/e4ee32e72e4e30c41254652f0b1383bf_m.png
47003,座間味村,26.227878,127.301424,https://local.pokemon.jp/img/p/manhole/ad1c1aa56457a1e78f7b08da82f89868_m.png
47004,渡嘉敷村,26.149140,127.347350,https://local.pokemon.jp/img/p/manhole/623f50d4f0f1212ad2d8e5bebf791b51_m.png
47005,北谷町,26.315733,127.753613,https://local.pokemon.jp/img/p/manhole/5607d35bb32e267fd37f06948e578902_m.png
47006,宮古島市,24.734962,125.263088,https://local.pokemon.jp/img/p/manhole/088f26f6fd18af3f64cc8d3e05af29ba_m.png
47007,石垣市,24.337418,124.156947,https://local.pokemon.jp/img/p/manhole/070b79a26c3156a55e5f6b29b4780493_m.png
47008,南城市,26.169111,127.827083,https://local.pokemon.jp/img/p/manhole/037ab104126f6843a4d1264f42926ab5_m.png
47009,豊見城市,26.15755646,127.656121,https://local.pokemon.jp/img/p/manhole/07ed34f46b856337cea843d294287933_m.png
47010,本部町,26.691694,127.877972,https://local.pokemon.jp/img/p/manhole/ace6dd945ee55438d6cc274d7d64dce2_m.png
47011,糸満市,26.13828,127.661336,https://local.pokemon.jp/img/p/manhole/e3d0f526cfd0d3725b9814853efd7932_m.png
47012,名護市,26.587352,127.985744,https://local.pokemon.jp/img/p/manhole/73c010eaa7438086463ffc02641320d9_m.png
47013,浦添市,26.245559,127.687899,https://local.pokemon.jp/img/p/manhole/f845741c04f2845bd5ca99241c714706_m.png
47014,うるま市,26.436181,127.826113,https://local.pokemon.jp/img/p/manhole/1a8c0a85ed3586e6076dac22272185d7_m.png
47015,沖縄市,26.32766,127.803001,https://local.pokemon.jp/img/p/manhole/b084912808574bde91de683704e1503d_m.png
47016,宜野湾市,26.28139,127.732215,https://local.pokemon.jp/img/p/manhole/130f21e980593ce7e537a81a804a1bc3_m.png
47017,那覇市,26.21641,127.68942,https://local.pokemon.jp/img/p/manhole/38ee8e633d933570a2506d1ceba9290b_m.png
